{
  "version": "1.0.0",
  "last_updated": "2025-08-17T15:00:00Z",
  "id": "NC-01",
  "name": "North Carolina 1",
  "state": "NC",
  "member": "Rep. Don Davis",
  "metrics": {
    "access_proximity": 77,
    "coverage_friction": 64,
    "availability": 42,
    "price_pressure": 25,
    "risk_score": 61
  },
  "drivers": [
    "Longer travel to dispensing sites"
  ],
  "resources": {
    "hrsa_clinic_finder": "https://findahealthcenter.hrsa.gov/",
    "state_medicaid_info": "https://medicaid.ncdhhs.gov/",
    "manufacturer_assistance": [
      {
        "name": "Lilly Insulin Value Program",
        "url": "https://www.lilly.com/insulin"
      },
      {
        "name": "NovoCare",
        "url": "https://www.novocare.com/"
      },
      {
        "name": "Sanofi Patient Connection",
        "url": "https://www.sanofipatientconnection.com/"
      }
    ]
  },
  "legislative_links": [
    {
      "type": "bill",
      "title": "H.R. 4246 \u2014 Drug Supply Transparency Act",
      "url": "https://www.congress.gov/",
      "date": "2025-07-24"
    },
    {
      "type": "press",
      "title": "Bipartisan roundtable on drug access",
      "url": "https://www.house.gov/",
      "date": "2025-07-23"
    },
    {
      "type": "bill",
      "title": "H.R. 4519 \u2014 Essential Medicines Access Act",
      "url": "https://www.congress.gov/",
      "date": "2025-07-22"
    }
  ],
  "sites": [
    {
      "site_type": "CHC",
      "name": "NC-01 Site 1",
      "lat": 26.0604,
      "lon": -79.9023
    },
    {
      "site_type": "CHC",
      "name": "NC-01 Site 2",
      "lat": 46.8027,
      "lon": -86.448
    },
    {
      "site_type": "CHC",
      "name": "NC-01 Site 3",
      "lat": 45.7477,
      "lon": -81.83
    },
    {
      "site_type": "340B",
      "name": "NC-01 Site 4",
      "lat": 44.0598,
      "lon": -113.6773
    },
    {
      "site_type": "340B",
      "name": "NC-01 Site 5",
      "lat": 35.7826,
      "lon": -84.7866
    },
    {
      "site_type": "CHC",
      "name": "NC-01 Site 6",
      "lat": 31.3727,
      "lon": -84.4051
    }
  ],
  "provenance": {
    "sources": [
      {
        "name": "HRSA Service Delivery Sites",
        "url": "https://data.hrsa.gov/",
        "last_pull": "2025-08-10"
      },
      {
        "name": "340B OPAIS Daily Report",
        "url": "https://www.hrsa.gov/opa",
        "last_pull": "2025-08-10"
      },
      {
        "name": "FDA Drug Shortages",
        "url": "https://www.fda.gov/drugs/drug-shortages/",
        "last_pull": "2025-08-10"
      },
      {
        "name": "Congress.gov API",
        "url": "https://api.congress.gov/",
        "last_pull": "2025-08-10"
      }
    ],
    "notes": "Distances proxied; demo metrics only."
  }
}